display_key,combined_key,file_name,country,province,latitude,longitude,population
Afghanistan,", Afghanistan",Afghanistan,Afghanistan,,33.93911,67.709953,38928346.0
Albania,", Albania",Albania,Albania,,41.1533,20.1683,2877797.0
Algeria,", Algeria",Algeria,Algeria,,28.0339,1.6596,43851044.0
Andorra,", Andorra",Andorra,Andorra,,42.5063,1.5218,77265.0
Angola,", Angola",Angola,Angola,,-11.2027,17.8739,32866272.0
Antigua and Barbuda,", Antigua and Barbuda",Antigua and Barbuda,Antigua and Barbuda,,17.0608,-61.7964,97929.0
Argentina,", Argentina",Argentina,Argentina,,-38.4161,-63.6167,45195774.0
Armenia,", Armenia",Armenia,Armenia,,40.0691,45.0382,2963243.0
Australia,", Australia",Australia,Australia,,-35.308056,149.124444,25499884
"Australia, Australian Capital Territory","Australian Capital Territory, Australia",Australian Capital Territory,Australia,Australian Capital Territory,-35.4735,149.0124,429800.0
"Australia, New South Wales","New South Wales, Australia",New South Wales,Australia,New South Wales,-33.8688,151.2093,8157700.0
"Australia, Northern Territory","Northern Territory, Australia",Northern Territory,Australia,Northern Territory,-12.4634,130.8456,245400.0
"Australia, Queensland","Queensland, Australia",Queensland,Australia,Queensland,-27.4698,153.0251,5160000.0
"Australia, South Australia","South Australia, Australia",South Australia,Australia,South Australia,-34.9285,138.6007,1767200.0
"Australia, Tasmania","Tasmania, Australia",Tasmania,Australia,Tasmania,-42.8821,147.3272,539600.0
"Australia, Victoria","Victoria, Australia",Victoria,Australia,Victoria,-37.8136,144.9631,6689400.0
"Australia, Western Australia","Western Australia, Australia",Western Australia,Australia,Western Australia,-31.9505,115.8605,2656200.0
Austria,", Austria",Austria,Austria,,47.5162,14.5501,9006398.0
Azerbaijan,", Azerbaijan",Azerbaijan,Azerbaijan,,40.1431,47.5769,10139177.0
Bahamas,", Bahamas",Bahamas,Bahamas,,25.025885,-78.035889,393244.0
Bahrain,", Bahrain",Bahrain,Bahrain,,26.0275,50.55,1701575.0
Bangladesh,", Bangladesh",Bangladesh,Bangladesh,,23.685,90.3563,164689383.0
Barbados,", Barbados",Barbados,Barbados,,13.1939,-59.5432,287375.0
Belarus,", Belarus",Belarus,Belarus,,53.7098,27.9534,9449323.0
Belgium,", Belgium",Belgium,Belgium,,50.8333,4.469936,11589623.0
Belize,", Belize",Belize,Belize,,17.1899,-88.4976,397628.0
Benin,", Benin",Benin,Benin,,9.3077,2.3158,12123200.0
Bhutan,", Bhutan",Bhutan,Bhutan,,27.5142,90.4336,771608.0
Bolivia,", Bolivia",Bolivia,Bolivia,,-16.2902,-63.5887,11673021.0
Bosnia and Herzegovina,", Bosnia and Herzegovina",Bosnia and Herzegovina,Bosnia and Herzegovina,,43.9159,17.6791,3280819.0
Botswana,", Botswana",Botswana,Botswana,,-22.3285,24.6849,2351627.0
Brazil,", Brazil",Brazil,Brazil,,-14.235,-51.9253,212559417.0
Brunei,", Brunei",Brunei,Brunei,,4.5353,114.7277,437479.0
Bulgaria,", Bulgaria",Bulgaria,Bulgaria,,42.7339,25.4858,6948445.0
Burkina Faso,", Burkina Faso",Burkina Faso,Burkina Faso,,12.2383,-1.5616,20903273.0
Burma,", Burma",Burma,Burma,,21.9162,95.956,54409800.0
Burundi,", Burundi",Burundi,Burundi,,-3.3731,29.9189,11890784.0
Cabo Verde,", Cabo Verde",Cabo Verde,Cabo Verde,,16.5388,-23.0418,555987.0
Cambodia,", Cambodia",Cambodia,Cambodia,,11.55,104.9167,16718965.0
Cameroon,", Cameroon",Cameroon,Cameroon,,3.848,11.5021,26545863.0
Canada,", Canada",Canada,Canada,,45.4,-75.666667,37742154
"Canada, Alberta","Alberta, Canada",Alberta,Canada,Alberta,53.9333,-116.5765,4345737.0
"Canada, British Columbia","British Columbia, Canada",British Columbia,Canada,British Columbia,53.7267,-127.6476,5020302.0
"Canada, Diamond Princess","Diamond Princess, Canada",Diamond Princess,Canada,Diamond Princess,0.0,0.0,0.0
"Canada, Grand Princess","Grand Princess, Canada",Grand Princess,Canada,Grand Princess,0.0,0.0,0.0
"Canada, Manitoba","Manitoba, Canada",Manitoba,Canada,Manitoba,53.7609,-98.8139,1360396.0
"Canada, New Brunswick","New Brunswick, Canada",New Brunswick,Canada,New Brunswick,46.5653,-66.4619,772094.0
"Canada, Newfoundland and Labrador","Newfoundland and Labrador, Canada",Newfoundland and Labrador,Canada,Newfoundland and Labrador,53.1355,-57.6604,523790.0
"Canada, Northwest Territories","Northwest Territories, Canada",Northwest Territories,Canada,Northwest Territories,64.8255,-124.8457,44598.0
"Canada, Nova Scotia","Nova Scotia, Canada",Nova Scotia,Canada,Nova Scotia,44.682,-63.7443,965382.0
"Canada, Nunavut","Nunavut, Canada",Nunavut,Canada,Nunavut,70.2998,-83.1076,38787.0
"Canada, Ontario","Ontario, Canada",Ontario,Canada,Ontario,51.2538,-85.3232,14446515.0
"Canada, Prince Edward Island","Prince Edward Island, Canada",Prince Edward Island,Canada,Prince Edward Island,46.5107,-63.4168,154748.0
"Canada, Quebec","Quebec, Canada",Quebec,Canada,Quebec,52.9399,-73.5491,8433301.0
"Canada, Repatriated Travellers","Repatriated Travellers, Canada",Repatriated Travellers,Canada,Repatriated Travellers,,,0.0
"Canada, Saskatchewan","Saskatchewan, Canada",Saskatchewan,Canada,Saskatchewan,52.9399,-106.4509,1168423.0
"Canada, Yukon","Yukon, Canada",Yukon,Canada,Yukon,64.2823,-135.0,40369.0
Central African Republic,", Central African Republic",Central African Republic,Central African Republic,,6.6111,20.9394,4829767.0
Chad,", Chad",Chad,Chad,,15.4542,18.7322,16425864.0
Chile,", Chile",Chile,Chile,,-35.6751,-71.543,19116201.0
China,", China",China,China,,39.916667, 116.383333,1439323776
"China, Anhui","Anhui, China",Anhui,China,Anhui,31.8257,117.2264,59500510.0
"China, Beijing","Beijing, China",Beijing,China,Beijing,40.1824,116.4142,19612368.0
"China, Chongqing","Chongqing, China",Chongqing,China,Chongqing,30.0572,107.874,28846170.0
"China, Fujian","Fujian, China",Fujian,China,Fujian,26.0789,117.9874,36894216.0
"China, Gansu","Gansu, China",Gansu,China,Gansu,35.7518,104.2861,25575254.0
"China, Guangdong","Guangdong, China",Guangdong,China,Guangdong,23.3417,113.4244,104303132.0
"China, Guangxi","Guangxi, China",Guangxi,China,Guangxi,23.8298,108.7881,46026629.0
"China, Guizhou","Guizhou, China",Guizhou,China,Guizhou,26.8154,106.8748,35806468.0
"China, Hainan","Hainan, China",Hainan,China,Hainan,19.1959,109.7453,9261518.0
"China, Hebei","Hebei, China",Hebei,China,Hebei,39.549,116.1306,71854202.0
"China, Heilongjiang","Heilongjiang, China",Heilongjiang,China,Heilongjiang,47.862,127.7615,38312224.0
"China, Henan","Henan, China",Henan,China,Henan,37.8957,114.9042,94023567.0
"China, Hong Kong","Hong Kong, China",Hong Kong,China,Hong Kong,22.3,114.2,7061200.0
"China, Hubei","Hubei, China",Hubei,China,Hubei,30.9756,112.2707,57237740.0
"China, Hunan","Hunan, China",Hunan,China,Hunan,27.6104,111.7088,65683722.0
"China, Inner Mongolia","Inner Mongolia, China",Inner Mongolia,China,Inner Mongolia,44.0935,113.9448,24706321.0
"China, Jiangsu","Jiangsu, China",Jiangsu,China,Jiangsu,32.9711,119.455,78659903.0
"China, Jiangxi","Jiangxi, China",Jiangxi,China,Jiangxi,27.614,115.7221,44567475.0
"China, Jilin","Jilin, China",Jilin,China,Jilin,43.6661,126.1923,27462297.0
"China, Liaoning","Liaoning, China",Liaoning,China,Liaoning,41.2956,122.6085,43746323.0
"China, Macau","Macau, China",Macau,China,Macau,22.1667,113.55,552503.0
"China, Ningxia","Ningxia, China",Ningxia,China,Ningxia,37.2692,106.1655,6176900.0
"China, Qinghai","Qinghai, China",Qinghai,China,Qinghai,35.7452,95.9956,5626722.0
"China, Shaanxi","Shaanxi, China",Shaanxi,China,Shaanxi,35.1917,108.8701,37327378.0
"China, Shandong","Shandong, China",Shandong,China,Shandong,36.3427,118.1498,100063065.0
"China, Shanghai","Shanghai, China",Shanghai,China,Shanghai,31.202,121.4491,23019148.0
"China, Shanxi","Shanxi, China",Shanxi,China,Shanxi,37.5777,112.2922,37022111.0
"China, Sichuan","Sichuan, China",Sichuan,China,Sichuan,30.6171,102.7103,80418200.0
"China, Tianjin","Tianjin, China",Tianjin,China,Tianjin,39.3054,117.323,12938224.0
"China, Tibet","Tibet, China",Tibet,China,Tibet,31.6927,88.0924,3002166.0
"China, Unknown","Unknown, China",Unknown,China,Unknown,,,0.0
"China, Xinjiang","Xinjiang, China",Xinjiang,China,Xinjiang,41.1129,85.2401,21813334.0
"China, Yunnan","Yunnan, China",Yunnan,China,Yunnan,24.974,101.487,45966239.0
"China, Zhejiang","Zhejiang, China",Zhejiang,China,Zhejiang,29.1832,120.0934,54426891.0
Colombia,", Colombia",Colombia,Colombia,,4.5709,-74.2973,50882891.0
Comoros,", Comoros",Comoros,Comoros,,-11.6455,43.3333,869601.0
Congo (Brazzaville),", Congo (Brazzaville)",Congo (Brazzaville),Congo (Brazzaville),,-0.228,15.8277,5518087.0
Congo (Kinshasa),", Congo (Kinshasa)",Congo (Kinshasa),Congo (Kinshasa),,-4.0383,21.7587,89561403.0
Costa Rica,", Costa Rica",Costa Rica,Costa Rica,,9.7489,-83.7534,5094118.0
Cote d'Ivoire,", Cote d'Ivoire",Cote d'Ivoire,Cote d'Ivoire,,7.54,-5.5471,26378274.0
Croatia,", Croatia",Croatia,Croatia,,45.1,15.2,4105267.0
Cuba,", Cuba",Cuba,Cuba,,21.521757,-77.781167,11326616.0
Cyprus,", Cyprus",Cyprus,Cyprus,,35.1264,33.4299,1207359.0
Czechia,", Czechia",Czechia,Czechia,,49.8175,15.473,10708981.0
Denmark,", Denmark",Denmark,Denmark,,56.2639,9.5018,5792202.0
"Denmark, Faroe Islands","Faroe Islands, Denmark",Faroe Islands,Denmark,Faroe Islands,61.8926,-6.9118,48863.0
"Denmark, Greenland","Greenland, Denmark",Greenland,Denmark,Greenland,71.7069,-42.6043,56770.0
Diamond Princess,", Diamond Princess",Diamond Princess,Diamond Princess,,0.0,0.0,0.0
Djibouti,", Djibouti",Djibouti,Djibouti,,11.8251,42.5903,988000.0
Dominica,", Dominica",Dominica,Dominica,,15.415,-61.371,71986.0
Dominican Republic,", Dominican Republic",Dominican Republic,Dominican Republic,,18.7357,-70.1627,10847910.0
Ecuador,", Ecuador",Ecuador,Ecuador,,-1.8312,-78.1834,17643054.0
Egypt,", Egypt",Egypt,Egypt,,26.820553,30.802498,102334404.0
El Salvador,", El Salvador",El Salvador,El Salvador,,13.7942,-88.8965,6486205.0
Equatorial Guinea,", Equatorial Guinea",Equatorial Guinea,Equatorial Guinea,,1.6508,10.2679,1402985.0
Eritrea,", Eritrea",Eritrea,Eritrea,,15.1794,39.7823,3546421.0
Estonia,", Estonia",Estonia,Estonia,,58.5953,25.0136,1326535.0
Eswatini,", Eswatini",Eswatini,Eswatini,,-26.5225,31.4659,1160164.0
Ethiopia,", Ethiopia",Ethiopia,Ethiopia,,9.145,40.4897,114963588.0
Fiji,", Fiji",Fiji,Fiji,,-17.7134,178.065,896445.0
Finland,", Finland",Finland,Finland,,61.92411,25.748151,5540720.0
France,", France",France,France,,46.2276,2.2137,65273511.0
"France, French Guiana","French Guiana, France",French Guiana,France,French Guiana,3.9339,-53.1258,298682.0
"France, French Polynesia","French Polynesia, France",French Polynesia,France,French Polynesia,-17.6797,149.4068,280908.0
"France, Guadeloupe","Guadeloupe, France",Guadeloupe,France,Guadeloupe,16.265,-61.551,400124.0
"France, Martinique","Martinique, France",Martinique,France,Martinique,14.6415,-61.0242,375265.0
"France, Mayotte","Mayotte, France",Mayotte,France,Mayotte,-12.8275,45.166244,272815.0
"France, New Caledonia","New Caledonia, France",New Caledonia,France,New Caledonia,-20.904305,165.618042,285498.0
"France, Reunion","Reunion, France",Reunion,France,Reunion,-21.1151,55.5364,895312.0
"France, Saint Barthelemy","Saint Barthelemy, France",Saint Barthelemy,France,Saint Barthelemy,17.9,-62.8333,9877.0
"France, Saint Pierre and Miquelon","Saint Pierre and Miquelon, France",Saint Pierre and Miquelon,France,Saint Pierre and Miquelon,46.8852,-56.3159,5794.0
"France, St Martin","St Martin, France",St Martin,France,St Martin,18.0708,-63.0501,38666.0
"France, Wallis and Futuna","Wallis and Futuna, France",Wallis and Futuna,France,Wallis and Futuna,-14.2938,-178.1165,0.0
Gabon,", Gabon",Gabon,Gabon,,-0.8037,11.6094,2225734.0
Gambia,", Gambia",Gambia,Gambia,,13.4432,-15.3101,2416668.0
Georgia,", Georgia",Georgia,Georgia,,42.3154,43.3569,3989167.0
Germany,", Germany",Germany,Germany,,51.165691,10.451526,83783942.0
Ghana,", Ghana",Ghana,Ghana,,7.9465,-1.0232,31072940.0
Greece,", Greece",Greece,Greece,,39.0742,21.8243,10423054.0
Grenada,", Grenada",Grenada,Grenada,,12.1165,-61.679,112523.0
Guatemala,", Guatemala",Guatemala,Guatemala,,15.7835,-90.2308,17915568.0
Guinea,", Guinea",Guinea,Guinea,,9.9456,-9.6966,13132795.0
Guinea-Bissau,", Guinea-Bissau",Guinea-Bissau,Guinea-Bissau,,11.8037,-15.1804,1968001.0
Guyana,", Guyana",Guyana,Guyana,,4.860416,-58.93018,786552.0
Haiti,", Haiti",Haiti,Haiti,,18.9712,-72.2852,11402528.0
Holy See,", Holy See",Holy See,Holy See,,41.9029,12.4534,801.0
Honduras,", Honduras",Honduras,Honduras,,15.2,-86.2419,9904607.0
Hungary,", Hungary",Hungary,Hungary,,47.1625,19.5033,9660351.0
Iceland,", Iceland",Iceland,Iceland,,64.9631,-19.0208,341243.0
India,", India",India,India,,20.593684,78.96288,1380004385.0
Indonesia,", Indonesia",Indonesia,Indonesia,,-0.7893,113.9213,273523615.0
Iran,", Iran",Iran,Iran,,32.427908,53.688046,83992949.0
Iraq,", Iraq",Iraq,Iraq,,33.223191,43.679291,40222493.0
Ireland,", Ireland",Ireland,Ireland,,53.1424,-7.6921,4937786.0
Israel,", Israel",Israel,Israel,,31.046051,34.851612,8655535.0
Italy,", Italy",Italy,Italy,,41.87194,12.56738,60461826.0
Jamaica,", Jamaica",Jamaica,Jamaica,,18.1096,-77.2975,2961167.0
Japan,", Japan",Japan,Japan,,36.204824,138.252924,126476461.0
Jordan,", Jordan",Jordan,Jordan,,31.24,36.51,10203134.0
Kazakhstan,", Kazakhstan",Kazakhstan,Kazakhstan,,48.0196,66.9237,18776707.0
Kenya,", Kenya",Kenya,Kenya,,-0.0236,37.9062,53771296.0
Kiribati,", Kiribati",Kiribati,Kiribati,,-3.3704,-168.734,119449.0
Korea South,", Korea South",Korea South,Korea South,,35.907757,127.766922,51269185.0
Kosovo,", Kosovo",Kosovo,Kosovo,,42.602636,20.902977,8737371.0
Kuwait,", Kuwait",Kuwait,Kuwait,,29.31166,47.481766,4270571.0
Kyrgyzstan,", Kyrgyzstan",Kyrgyzstan,Kyrgyzstan,,41.20438,74.766098,6524195.0
Laos,", Laos",Laos,Laos,,19.85627,102.495496,7275560.0
Latvia,", Latvia",Latvia,Latvia,,56.8796,24.6032,1886198.0
Lebanon,", Lebanon",Lebanon,Lebanon,,33.8547,35.8623,6825445.0
Lesotho,", Lesotho",Lesotho,Lesotho,,-29.61,28.2336,2142249.0
Liberia,", Liberia",Liberia,Liberia,,6.428055,-9.429499,5057681.0
Libya,", Libya",Libya,Libya,,26.3351,17.228331,6871292.0
Liechtenstein,", Liechtenstein",Liechtenstein,Liechtenstein,,47.14,9.55,38128.0
Lithuania,", Lithuania",Lithuania,Lithuania,,55.1694,23.8813,2722289.0
Luxembourg,", Luxembourg",Luxembourg,Luxembourg,,49.8153,6.1296,625978.0
MS Zaandam,", MS Zaandam",MS Zaandam,MS Zaandam,,0.0,0.0,0.0
Madagascar,", Madagascar",Madagascar,Madagascar,,-18.766947,46.869107,27691018.0
Malawi,", Malawi",Malawi,Malawi,,-13.2543,34.3015,19129952.0
Malaysia,", Malaysia",Malaysia,Malaysia,,4.210484,101.975766,32365999.0
Maldives,", Maldives",Maldives,Maldives,,3.2028,73.2207,540544.0
Mali,", Mali",Mali,Mali,,17.570692,-3.996166,20250833.0
Malta,", Malta",Malta,Malta,,35.9375,14.3754,441543.0
Marshall Islands,", Marshall Islands",Marshall Islands,Marshall Islands,,7.1315,171.1845,59190.0
Mauritania,", Mauritania",Mauritania,Mauritania,,21.0079,-10.9408,4649658.0
Mauritius,", Mauritius",Mauritius,Mauritius,,-20.348404,57.552152,1271768.0
Mexico,", Mexico",Mexico,Mexico,,23.6345,-102.5528,128932753.0
Micronesia,", Micronesia",Micronesia,Micronesia,,7.4256,150.5508,115023.0
Moldova,", Moldova",Moldova,Moldova,,47.4116,28.3699,4033963.0
Monaco,", Monaco",Monaco,Monaco,,43.7333,7.4167,39242.0
Mongolia,", Mongolia",Mongolia,Mongolia,,46.8625,103.8467,3278290.0
Montenegro,", Montenegro",Montenegro,Montenegro,,42.708678,19.37439,628066.0
Morocco,", Morocco",Morocco,Morocco,,31.7917,-7.0926,36910560.0
Mozambique,", Mozambique",Mozambique,Mozambique,,-18.665695,35.529562,31255435.0
Namibia,", Namibia",Namibia,Namibia,,-22.9576,18.4904,2540905.0
Nepal,", Nepal",Nepal,Nepal,,28.1667,84.25,29136808.0
Netherlands,", Netherlands",Netherlands,Netherlands,,52.1326,5.2913,17134872.0
"Netherlands, Aruba","Aruba, Netherlands",Aruba,Netherlands,Aruba,12.5211,-69.9683,106766.0
"Netherlands, Bonaire Sint Eustatius and Saba","Bonaire Sint Eustatius and Saba, Netherlands",Bonaire Sint Eustatius and Saba,Netherlands,Bonaire Sint Eustatius and Saba,12.1784,-68.2385,26223.0
"Netherlands, Curacao","Curacao, Netherlands",Curacao,Netherlands,Curacao,12.1696,-68.99,164093.0
"Netherlands, Sint Maarten","Sint Maarten, Netherlands",Sint Maarten,Netherlands,Sint Maarten,18.0425,-63.0548,42876.0
New Zealand,", New Zealand",New Zealand,New Zealand,,-40.9006,174.886,4822233.0
"New Zealand, Cook Islands","Cook Islands, New Zealand",Cook Islands,New Zealand,Cook Islands,-21.2367,-159.7777,0.0
Nicaragua,", Nicaragua",Nicaragua,Nicaragua,,12.865416,-85.207229,6624554.0
Niger,", Niger",Niger,Niger,,17.607789,8.081666,24206644.0
Nigeria,", Nigeria",Nigeria,Nigeria,,9.082,8.6753,206139589.0
North Macedonia,", North Macedonia",North Macedonia,North Macedonia,,41.6086,21.7453,2083374.0
Norway,", Norway",Norway,Norway,,60.472,8.4689,5421241.0
Oman,", Oman",Oman,Oman,,21.512583,55.923255,5106626.0
Pakistan,", Pakistan",Pakistan,Pakistan,,30.3753,69.3451,220892340.0
Palau,", Palau",Palau,Palau,,7.515,134.5825,18094.0
Panama,", Panama",Panama,Panama,,8.538,-80.7821,4314767.0
Papua New Guinea,", Papua New Guinea",Papua New Guinea,Papua New Guinea,,-6.314993,143.95555,8947024.0
Paraguay,", Paraguay",Paraguay,Paraguay,,-23.4425,-58.4438,7132538.0
Peru,", Peru",Peru,Peru,,-9.19,-75.0152,32971854.0
Philippines,", Philippines",Philippines,Philippines,,12.879721,121.774017,109581078.0
Poland,", Poland",Poland,Poland,,51.9194,19.1451,37846611.0
Portugal,", Portugal",Portugal,Portugal,,39.3999,-8.2245,10196709.0
Qatar,", Qatar",Qatar,Qatar,,25.3548,51.1839,2881053.0
Romania,", Romania",Romania,Romania,,45.9432,24.9668,19237691.0
Russia,", Russia",Russia,Russia,,61.52401,105.318756,145934462.0
Rwanda,", Rwanda",Rwanda,Rwanda,,-1.9403,29.8739,12952218.0
Saint Kitts and Nevis,", Saint Kitts and Nevis",Saint Kitts and Nevis,Saint Kitts and Nevis,,17.357822,-62.782998,53199.0
Saint Lucia,", Saint Lucia",Saint Lucia,Saint Lucia,,13.9094,-60.9789,183627.0
Saint Vincent and the Grenadines,", Saint Vincent and the Grenadines",Saint Vincent and the Grenadines,Saint Vincent and the Grenadines,,12.9843,-61.2872,110940.0
Samoa,", Samoa",Samoa,Samoa,,-13.759,-172.1046,198414.0
San Marino,", San Marino",San Marino,San Marino,,43.9424,12.4578,33931.0
Sao Tome and Principe,", Sao Tome and Principe",Sao Tome and Principe,Sao Tome and Principe,,0.1864,6.6131,219159.0
Saudi Arabia,", Saudi Arabia",Saudi Arabia,Saudi Arabia,,23.885942,45.079162,34813871.0
Senegal,", Senegal",Senegal,Senegal,,14.4974,-14.4524,16743927.0
Serbia,", Serbia",Serbia,Serbia,,44.0165,21.0059,8737371.0
Seychelles,", Seychelles",Seychelles,Seychelles,,-4.6796,55.492,98347.0
Sierra Leone,", Sierra Leone",Sierra Leone,Sierra Leone,,8.460555,-11.779889,7976983.0
Singapore,", Singapore",Singapore,Singapore,,1.2833,103.8333,5850342.0
Slovakia,", Slovakia",Slovakia,Slovakia,,48.669,19.699,5459642.0
Slovenia,", Slovenia",Slovenia,Slovenia,,46.1512,14.9955,2078938.0
Solomon Islands,", Solomon Islands",Solomon Islands,Solomon Islands,,-9.6457,160.1562,686884.0
Somalia,", Somalia",Somalia,Somalia,,5.152149,46.199616,15893222.0
South Africa,", South Africa",South Africa,South Africa,,-30.5595,22.9375,59308690.0
South Sudan,", South Sudan",South Sudan,South Sudan,,6.877,31.307,11193725.0
Spain,", Spain",Spain,Spain,,40.463667,-3.74922,46754778.0
Sri Lanka,", Sri Lanka",Sri Lanka,Sri Lanka,,7.873054,80.771797,21413249.0
Sudan,", Sudan",Sudan,Sudan,,12.8628,30.2176,43849260.0
Summer Olympics 2020,", Summer Olympics 2020",Summer Olympics 2020,Summer Olympics 2020,,35.6491,139.7737,0.0
Suriname,", Suriname",Suriname,Suriname,,3.9193,-56.0278,586632.0
Sweden,", Sweden",Sweden,Sweden,,60.128161,18.643501,10099265.0
Switzerland,", Switzerland",Switzerland,Switzerland,,46.8182,8.2275,8654622.0
Syria,", Syria",Syria,Syria,,34.802075,38.996815,17500658.0
Taiwan,", Taiwan",Taiwan,Taiwan,,23.7,121.0,23816775.0
Tajikistan,", Tajikistan",Tajikistan,Tajikistan,,38.861,71.2761,9537645.0
Tanzania,", Tanzania",Tanzania,Tanzania,,-6.369028,34.888822,59734218.0
Thailand,", Thailand",Thailand,Thailand,,15.870032,100.992541,69799978.0
Timor-Leste,", Timor-Leste",Timor-Leste,Timor-Leste,,-8.874217,125.727539,1318445.0
Togo,", Togo",Togo,Togo,,8.6195,0.8248,8278724.0
Trinidad and Tobago,", Trinidad and Tobago",Trinidad and Tobago,Trinidad and Tobago,,10.6918,-61.2225,1399488.0
Tunisia,", Tunisia",Tunisia,Tunisia,,33.886917,9.537499,11818619.0
Turkey,", Turkey",Turkey,Turkey,,38.9637,35.2433,84339067.0
US,", US",US,US,,40.0,-100.0,331002651.0
"US, Alabama","Alabama, US",Alabama,US,Alabama,33.2588817,-86.8295337,333290464
"US, Alaska","Alaska, US",Alaska,US,Alaska,64.4459613,-149.680909,333290464
"US, American Samoa","American Samoa, US",American Samoa,US,American Samoa,-14.289304,-170.692511,333290464
"US, Arizona","Arizona, US",Arizona,US,Arizona,34.395342,-111.763275,333290464
"US, Arkansas","Arkansas, US",Arkansas,US,Arkansas,35.2048883,-92.4479108,333290464
"US, California","California, US",California,US,California,36.7014631,-118.755997,333290464
"US, Colorado","Colorado, US",Colorado,US,Colorado,38.7251776,-105.607716,333290464
"US, Connecticut","Connecticut, US",Connecticut,US,Connecticut,41.6500201,-72.7342163,333290464
"US, Delaware","Delaware, US",Delaware,US,Delaware,38.6920451,-75.4013315,333290464
"US, Diamond Princess","Diamond Princess, US",Diamond Princess,US,Diamond Princess,53.8953584,27.5554078,333290464
"US, District of Columbia","District of Columbia, US",District of Columbia,US,District of Columbia,38.89379365,-76.98799757261312,333290464
"US, Florida","Florida, US",Florida,US,Florida,27.7567667,-81.4639835,333290464
"US, Georgia","Georgia, US",Georgia,US,Georgia,32.3293809,-83.1137366,333290464
"US, Grand Princess","Grand Princess, US",Grand Princess,US,Grand Princess,39.1432628,23.437729664353387,333290464
"US, Guam","Guam, US",Guam,US,Guam,13.450125700000001,144.75755102972062,333290464
"US, Hawaii","Hawaii, US",Hawaii,US,Hawaii,19.593801499999998,-155.42837009716908,333290464
"US, Idaho","Idaho, US",Idaho,US,Idaho,43.6447642,-114.015407,333290464
"US, Illinois","Illinois, US",Illinois,US,Illinois,40.0796606,-89.4337288,333290464
"US, Indiana","Indiana, US",Indiana,US,Indiana,40.3270127,-86.1746933,333290464
"US, Iowa","Iowa, US",Iowa,US,Iowa,41.9216734,-93.3122705,333290464
"US, Kansas","Kansas, US",Kansas,US,Kansas,38.27312,-98.5821872,333290464
"US, Kentucky","Kentucky, US",Kentucky,US,Kentucky,37.5726028,-85.1551411,333290464
"US, Louisiana","Louisiana, US",Louisiana,US,Louisiana,30.8703881,-92.007126,333290464
"US, Maine","Maine, US",Maine,US,Maine,45.709097,-68.8590201,333290464
"US, Maryland","Maryland, US",Maryland,US,Maryland,39.5162234,-76.9382069,333290464
"US, Massachusetts","Massachusetts, US",Massachusetts,US,Massachusetts,42.3788774,-72.032366,333290464
"US, Michigan","Michigan, US",Michigan,US,Michigan,43.6211955,-84.6824346,333290464
"US, Minnesota","Minnesota, US",Minnesota,US,Minnesota,45.9896587,-94.6113288,333290464
"US, Mississippi","Mississippi, US",Mississippi,US,Mississippi,32.9715285,-89.7348497,333290464
"US, Missouri","Missouri, US",Missouri,US,Missouri,38.7604815,-92.5617875,333290464
"US, Montana","Montana, US",Montana,US,Montana,47.3752671,-109.638757,333290464
"US, Nebraska","Nebraska, US",Nebraska,US,Nebraska,41.7370229,-99.5873816,333290464
"US, Nevada","Nevada, US",Nevada,US,Nevada,39.5158825,-116.8537227,333290464
"US, New Hampshire","New Hampshire, US",New Hampshire,US,New Hampshire,43.4849133,-71.6553992,333290464
"US, New Jersey","New Jersey, US",New Jersey,US,New Jersey,40.0757384,-74.4041622,333290464
"US, New Mexico","New Mexico, US",New Mexico,US,New Mexico,34.5708167,-105.993007,333290464
"US, New York","New York, US",New York,US,New York,40.7127281,-74.0060152,333290464
"US, North Carolina","North Carolina, US",North Carolina,US,North Carolina,35.6729639,-79.0392919,333290464
"US, North Dakota","North Dakota, US",North Dakota,US,North Dakota,47.6201461,-100.540737,333290464
"US, Northern Mariana Islands","Northern Mariana Islands, US",Northern Mariana Islands,US,Northern Mariana Islands,14.149020499999999,145.21345248318923,333290464
"US, Ohio","Ohio, US",Ohio,US,Ohio,40.2253569,-82.6881395,333290464
"US, Oklahoma","Oklahoma, US",Oklahoma,US,Oklahoma,34.9550817,-97.2684063,333290464
"US, Oregon","Oregon, US",Oregon,US,Oregon,43.9792797,-120.737257,333290464
"US, Pennsylvania","Pennsylvania, US",Pennsylvania,US,Pennsylvania,40.9699889,-77.7278831,333290464
"US, Puerto Rico","Puerto Rico, US",Puerto Rico,US,Puerto Rico,18.2214149,-66.41328179513847,333290464
"US, Rhode Island","Rhode Island, US",Rhode Island,US,Rhode Island,41.7962409,-71.5992372,333290464
"US, South Carolina","South Carolina, US",South Carolina,US,South Carolina,33.6874388,-80.4363743,333290464
"US, South Dakota","South Dakota, US",South Dakota,US,South Dakota,44.6471761,-100.348761,333290464
"US, Tennessee","Tennessee, US",Tennessee,US,Tennessee,35.7730076,-86.2820081,333290464
"US, Texas","Texas, US",Texas,US,Texas,31.8160381,-99.5120986,333290464
"US, Utah","Utah, US",Utah,US,Utah,39.4225192,-111.714358,333290464
"US, Vermont","Vermont, US",Vermont,US,Vermont,44.5990718,-72.5002608,333290464
"US, Virgin Islands","Virgin Islands, US",Virgin Islands,US,Virgin Islands,18.4024395,-64.5661642,333290464
"US, Virginia","Virginia, US",Virginia,US,Virginia,37.1232245,-78.4927721,333290464
"US, Washington","Washington, US",Washington,US,Washington,38.8949924,-77.0365581,333290464
"US, West Virginia","West Virginia, US",West Virginia,US,West Virginia,38.4758406,-80.8408415,333290464
"US, Wisconsin","Wisconsin, US",Wisconsin,US,Wisconsin,44.4308975,-89.6884637,333290464
"US, Wyoming","Wyoming, US",Wyoming,US,Wyoming,43.1700264,-107.568534,333290464
Uganda,", Uganda",Uganda,Uganda,,1.373333,32.290275,45741007.0
Ukraine,", Ukraine",Ukraine,Ukraine,,48.3794,31.1656,43733762.0
United Arab Emirates,", United Arab Emirates",United Arab Emirates,United Arab Emirates,,23.424076,53.847818,9890402.0
United Kingdom,", United Kingdom",United Kingdom,United Kingdom,,55.3781,-3.436,67886011.0
"United Kingdom, Anguilla","Anguilla, United Kingdom",Anguilla,United Kingdom,Anguilla,18.2206,-63.0686,15003.0
"United Kingdom, Bermuda","Bermuda, United Kingdom",Bermuda,United Kingdom,Bermuda,32.3078,-64.7505,62278.0
"United Kingdom, British Virgin Islands","British Virgin Islands, United Kingdom",British Virgin Islands,United Kingdom,British Virgin Islands,18.4207,-64.64,30231.0
"United Kingdom, Cayman Islands","Cayman Islands, United Kingdom",Cayman Islands,United Kingdom,Cayman Islands,19.3133,-81.2546,65722.0
"United Kingdom, Channel Islands","Channel Islands, United Kingdom",Channel Islands,United Kingdom,Channel Islands,49.3723,-2.3644,173863.0
"United Kingdom, Falkland Islands (Malvinas)","Falkland Islands (Malvinas), United Kingdom",Falkland Islands (Malvinas),United Kingdom,Falkland Islands (Malvinas),-51.7963,-59.5236,3480.0
"United Kingdom, Gibraltar","Gibraltar, United Kingdom",Gibraltar,United Kingdom,Gibraltar,36.1408,-5.3536,33691.0
"United Kingdom, Isle of Man","Isle of Man, United Kingdom",Isle of Man,United Kingdom,Isle of Man,54.2361,-4.5481,85033.0
"United Kingdom, Montserrat","Montserrat, United Kingdom",Montserrat,United Kingdom,Montserrat,16.742498,-62.187366,4992.0
"United Kingdom, Saint Helena Ascension and Tristan da Cunha","Saint Helena Ascension and Tristan da Cunha, United Kingdom",Saint Helena Ascension and Tristan da Cunha,United Kingdom,Saint Helena Ascension and Tristan da Cunha,-7.9467,-14.3559,0.0
"United Kingdom, Turks and Caicos Islands","Turks and Caicos Islands, United Kingdom",Turks and Caicos Islands,United Kingdom,Turks and Caicos Islands,21.694,-71.7979,38717.0
Uruguay,", Uruguay",Uruguay,Uruguay,,-32.5228,-55.7658,3473730.0
Uzbekistan,", Uzbekistan",Uzbekistan,Uzbekistan,,41.377491,64.585262,33469203.0
Vanuatu,", Vanuatu",Vanuatu,Vanuatu,,-15.3767,166.9592,307145.0
Venezuela,", Venezuela",Venezuela,Venezuela,,6.4238,-66.5897,28435940.0
Vietnam,", Vietnam",Vietnam,Vietnam,,14.058324,108.277199,97338579.0
West Bank and Gaza,", West Bank and Gaza",West Bank and Gaza,West Bank and Gaza,,31.9522,35.2332,4817000.0
Yemen,", Yemen",Yemen,Yemen,,15.552727,48.516388,29825964.0
Zambia,", Zambia",Zambia,Zambia,,-13.133897,27.849332,18383955.0
Zimbabwe,", Zimbabwe",Zimbabwe,Zimbabwe,,-19.015438,29.154857,14862924.0
